{"features":[{"id":"DHN","properties":{"":"","State":"AL","Facility Name":"DOTHAN RGNL","ID":"DHN","geo_accuracy":99,"geo_longitude":-85.449605,"geo_latitude":31.320766,"City":"DOTHAN"},"type":"Feature","geometry":{"type":"Point","coordinates":[-85.449605,31.320766]}},{"id":"TCL","properties":{"":"","State":"AL","Facility Name":"TUSCALOOSA RGNL","ID":"TCL","geo_accuracy":99,"geo_longitude":-87.607908,"geo_latitude":33.22255,"City":"TUSCALOOSA"},"type":"Feature","geometry":{"type":"Point","coordinates":[-87.607908,33.22255]}},{"id":"FYV","properties":{"":"","State":"AR","Facility Name":"DRAKE FIELD","ID":"FYV","geo_accuracy":99,"geo_longitude":-94.169922,"geo_latitude":36.00455,"City":"FAYETTEVILLE"},"type":"Feature","geometry":{"type":"Point","coordinates":[-94.169922,36.00455]}},{"id":"TXK","properties":{"":"","State":"AR","Facility Name":"TEXARKANA RGNL-WEBB FIELD","ID":"TXK","geo_accuracy":99,"geo_longitude":-93.990631,"geo_latitude":33.453389,"City":"TEXARKANA"},"type":"Feature","geometry":{"type":"Point","coordinates":[-93.990631,33.453389]}},{"id":"GEU","properties":{"":"","State":"AZ","Facility Name":"GLENDALE MUNI","ID":"GEU","geo_accuracy":99,"geo_longitude":-112.295146,"geo_latitude":33.526571,"City":"GLENDALE"},"type":"Feature","geometry":{"type":"Point","coordinates":[-112.295146,33.526571]}},{"id":"GYR","properties":{"":"","State":"AZ","Facility Name":"PHOENIX GOODYEAR","ID":"GYR","geo_accuracy":99,"geo_longitude":-112.364826,"geo_latitude":33.428377,"City":"GOODYEAR"},"type":"Feature","geometry":{"type":"Point","coordinates":[-112.364826,33.428377]}},{"id":"IFP","properties":{"":"","State":"AZ","Facility Name":"LAUGHLIN/BULLHEAD INTL","ID":"IFP","geo_accuracy":99,"geo_longitude":-114.556508,"geo_latitude":35.165362,"City":"BULLHEAD CITY"},"type":"Feature","geometry":{"type":"Point","coordinates":[-114.556508,35.165362]}},{"id":"RYN","properties":{"":"","State":"AZ","Facility Name":"RYAN FIELD","ID":"RYN","geo_accuracy":99,"geo_longitude":-111.173277,"geo_latitude":32.137654,"City":"TUCSON"},"type":"Feature","geometry":{"type":"Point","coordinates":[-111.173277,32.137654]}},{"id":"FUL","properties":{"":"","State":"CA","Facility Name":"FULLERTON MUNI","ID":"FUL","geo_accuracy":99,"geo_longitude":-117.979927,"geo_latitude":33.870402,"City":"FULLERTON"},"type":"Feature","geometry":{"type":"Point","coordinates":[-117.979927,33.870402]}},{"id":"MER","properties":{"":"","State":"CA","Facility Name":"CASTLE","ID":"MER","geo_accuracy":99,"geo_longitude":-120.557623,"geo_latitude":37.366421,"City":"ATWATER"},"type":"Feature","geometry":{"type":"Point","coordinates":[-120.557623,37.366421]}},{"id":"OXR","properties":{"":"","State":"CA","Facility Name":"OXNARD","ID":"OXR","geo_accuracy":99,"geo_longitude":-119.206386,"geo_latitude":34.198394,"City":"OXNARD"},"type":"Feature","geometry":{"type":"Point","coordinates":[-119.206386,34.198394]}},{"id":"RNM","properties":{"":"","State":"CA","Facility Name":"RAMONA","ID":"RNM","geo_accuracy":99,"geo_longitude":-116.907001,"geo_latitude":33.04008,"City":"RAMONA"},"type":"Feature","geometry":{"type":"Point","coordinates":[-116.907001,33.04008]}},{"id":"SAC","properties":{"":"","State":"CA","Facility Name":"SACRAMENTO EXECUTIVE","ID":"SAC","geo_accuracy":99,"geo_longitude":-121.492915,"geo_latitude":38.515475,"City":"SACRAMENTO"},"type":"Feature","geometry":{"type":"Point","coordinates":[-121.492915,38.515475]}},{"id":"SDM","properties":{"":"","State":"CA","Facility Name":"BROWN FIELD MUNI","ID":"SDM","geo_accuracy":99,"geo_longitude":-116.981754,"geo_latitude":32.56985,"City":"SAN DIEGO"},"type":"Feature","geometry":{"type":"Point","coordinates":[-116.981754,32.56985]}},{"id":"SNS","properties":{"":"","State":"CA","Facility Name":"SALINAS MUNI","ID":"SNS","geo_accuracy":99,"geo_longitude":-121.608715,"geo_latitude":36.664732,"City":"SALINAS"},"type":"Feature","geometry":{"type":"Point","coordinates":[-121.608715,36.664732]}},{"id":"VCV","properties":{"":"","State":"CA","Facility Name":"SOUTHERN CALIFORNIA LOGISTICS","ID":"VCV","geo_accuracy":99,"geo_longitude":-117.385502,"geo_latitude":34.583648,"City":"VICTORVILLE"},"type":"Feature","geometry":{"type":"Point","coordinates":[-117.385502,34.583648]}},{"id":"WHP","properties":{"":"","State":"CA","Facility Name":"WHITEMAN","ID":"WHP","geo_accuracy":99,"geo_longitude":-118.413868,"geo_latitude":34.260168,"City":"LOS ANGELES"},"type":"Feature","geometry":{"type":"Point","coordinates":[-118.413868,34.260168]}},{"id":"WJF","properties":{"":"","State":"CA","Facility Name":"GENERAL WM J FOX AIRFIELD","ID":"WJF","geo_accuracy":99,"geo_longitude":-118.217659,"geo_latitude":34.740245,"City":"LANCASTER"},"type":"Feature","geometry":{"type":"Point","coordinates":[-118.217659,34.740245]}},{"id":"BDR","properties":{"":"","State":"CT","Facility Name":"IGOR I SIKORSKY MEMORIAL","ID":"BDR","geo_accuracy":99,"geo_longitude":-73.128309,"geo_latitude":41.162961,"City":"BRIDGEPORT"},"type":"Feature","geometry":{"type":"Point","coordinates":[-73.128309,41.162961]}},{"id":"DXR","properties":{"":"","State":"CT","Facility Name":"DANBURY MUNI","ID":"DXR","geo_accuracy":99,"geo_longitude":-73.482275,"geo_latitude":41.371083,"City":"DANBURY"},"type":"Feature","geometry":{"type":"Point","coordinates":[-73.482275,41.371083]}},{"id":"GON","properties":{"":"","State":"CT","Facility Name":"GROTON-NEW LONDON","ID":"GON","geo_accuracy":99,"geo_longitude":-72.046371,"geo_latitude":41.328397,"City":"GROTON (NEW LONDON)"},"type":"Feature","geometry":{"type":"Point","coordinates":[-72.046371,41.328397]}},{"id":"HFD","properties":{"":"","State":"CT","Facility Name":"HARTFORD-BRAINARD","ID":"HFD","geo_accuracy":99,"geo_longitude":-72.649975,"geo_latitude":41.735942,"City":"HARTFORD"},"type":"Feature","geometry":{"type":"Point","coordinates":[-72.649975,41.735942]}},{"id":"HVN","properties":{"":"","State":"CT","Facility Name":"TWEED-NEW HAVEN","ID":"HVN","geo_accuracy":99,"geo_longitude":-72.887344,"geo_latitude":41.266274,"City":"NEW HAVEN"},"type":"Feature","geometry":{"type":"Point","coordinates":[-72.887344,41.266274]}},{"id":"OXC","properties":{"":"","State":"CT","Facility Name":"WATERBURY-OXFORD","ID":"OXC","geo_accuracy":99,"geo_longitude":-73.13509,"geo_latitude":41.478818,"City":"OXFORD"},"type":"Feature","geometry":{"type":"Point","coordinates":[-73.13509,41.478818]}},{"id":"APF","properties":{"":"","State":"FL","Facility Name":"NAPLES MUNI","ID":"APF","geo_accuracy":99,"geo_longitude":-81.775208,"geo_latitude":26.153931,"City":"NAPLES"},"type":"Feature","geometry":{"type":"Point","coordinates":[-81.775208,26.153931]}},{"id":"BCT","properties":{"":"","State":"FL","Facility Name":"BOCA RATON","ID":"BCT","geo_accuracy":99,"geo_longitude":-80.107203,"geo_latitude":26.380652,"City":"BOCA RATON"},"type":"Feature","geometry":{"type":"Point","coordinates":[-80.107203,26.380652]}},{"id":"EVB","properties":{"":"","State":"FL","Facility Name":"NEW SMYRNA BEACH MUNI","ID":"EVB","geo_accuracy":99,"geo_longitude":-80.947914,"geo_latitude":29.054527,"City":"NEW SMYRNA BEACH"},"type":"Feature","geometry":{"type":"Point","coordinates":[-80.947914,29.054527]}},{"id":"FMY","properties":{"":"","State":"FL","Facility Name":"PAGE FIELD","ID":"FMY","geo_accuracy":99,"geo_longitude":-81.861882,"geo_latitude":26.587001,"City":"FORT MYERS"},"type":"Feature","geometry":{"type":"Point","coordinates":[-81.861882,26.587001]}},{"id":"HWO","properties":{"":"","State":"FL","Facility Name":"NORTH PERRY","ID":"HWO","geo_accuracy":99,"geo_longitude":-80.242558,"geo_latitude":26.005736,"City":"HOLLYWOOD"},"type":"Feature","geometry":{"type":"Point","coordinates":[-80.242558,26.005736]}},{"id":"LAL","properties":{"":"","State":"FL","Facility Name":"LAKELAND LINDER RGNL","ID":"LAL","geo_accuracy":62,"geo_longitude":-82.014297,"geo_latitude":27.996,"City":"LAKELAND"},"type":"Feature","geometry":{"type":"Point","coordinates":[-82.014297,27.996]}},{"id":"LEE","properties":{"":"","State":"FL","Facility Name":"LEESBURG INTL","ID":"LEE","geo_accuracy":62,"geo_longitude":-81.808899,"geo_latitude":28.827801,"City":"LEESBURG"},"type":"Feature","geometry":{"type":"Point","coordinates":[-81.808899,28.827801]}},{"id":"OCF","properties":{"":"","State":"FL","Facility Name":"OCALA INTL-JIM TAYLOR FIELD","ID":"OCF","geo_accuracy":62,"geo_longitude":-82.219299,"geo_latitude":29.172001,"City":"OCALA"},"type":"Feature","geometry":{"type":"Point","coordinates":[-82.219299,29.172001]}},{"id":"OMN","properties":{"":"","State":"FL","Facility Name":"ORMOND BEACH MUNI","ID":"OMN","geo_accuracy":62,"geo_longitude":-81.106903,"geo_latitude":29.2964,"City":"ORMOND BEACH"},"type":"Feature","geometry":{"type":"Point","coordinates":[-81.106903,29.2964]}},{"id":"PGD","properties":{"":"","State":"FL","Facility Name":"PUNTA GORDA PUNTA","ID":"PGD","geo_accuracy":62,"geo_longitude":-82.000397,"geo_latitude":26.915899,"City":"GORDA"},"type":"Feature","geometry":{"type":"Point","coordinates":[-82.000397,26.915899]}},{"id":"SGJ","properties":{"":"","State":"FL","Facility Name":"NORTHEAST FLORIDA RGNL","ID":"SGJ","geo_accuracy":62,"geo_longitude":-81.342796,"geo_latitude":29.953199,"City":"ST AUGUSTINE"},"type":"Feature","geometry":{"type":"Point","coordinates":[-81.342796,29.953199]}},{"id":"SPG","properties":{"":"","State":"FL","Facility Name":"ALBERT WHITTED","ID":"SPG","geo_accuracy":62,"geo_longitude":-82.633698,"geo_latitude":27.762199,"City":"ST PETERSBURG"},"type":"Feature","geometry":{"type":"Point","coordinates":[-82.633698,27.762199]}},{"id":"SUA","properties":{"":"","State":"FL","Facility Name":"WITHAM FIELD","ID":"SUA","geo_accuracy":62,"geo_longitude":-80.226402,"geo_latitude":27.1779,"City":"STUART"},"type":"Feature","geometry":{"type":"Point","coordinates":[-80.226402,27.1779]}},{"id":"TIX","properties":{"":"","State":"FL","Facility Name":"SPACE COAST RGNL","ID":"TIX","geo_accuracy":62,"geo_longitude":-80.7929,"geo_latitude":28.51,"City":"TITUSVILLE"},"type":"Feature","geometry":{"type":"Point","coordinates":[-80.7929,28.51]}},{"id":"ABY","properties":{"":"","State":"GA","Facility Name":"SOUTHWEST GEORGIA RGNL","ID":"ABY","geo_accuracy":62,"geo_longitude":-84.186996,"geo_latitude":31.5324,"City":"ALBANY"},"type":"Feature","geometry":{"type":"Point","coordinates":[-84.186996,31.5324]}},{"id":"AHN","properties":{"":"","State":"GA","Facility Name":"ATHENS/BEN EPPS","ID":"AHN","geo_accuracy":62,"geo_longitude":-83.324402,"geo_latitude":33.954899,"City":"ATHENS"},"type":"Feature","geometry":{"type":"Point","coordinates":[-83.324402,33.954899]}},{"id":"LZU","properties":{"":"","State":"GA","Facility Name":"GWINNETT COUNTY - BRISCOE FIELD","ID":"LZU","geo_accuracy":62,"geo_longitude":-83.965897,"geo_latitude":33.982498,"City":"LAWRENCEVILLE"},"type":"Feature","geometry":{"type":"Point","coordinates":[-83.965897,33.982498]}},{"id":"MCN","properties":{"":"","State":"GA","Facility Name":"MIDDLE GEORGIA RGNL","ID":"MCN","geo_accuracy":62,"geo_longitude":-83.649902,"geo_latitude":32.702202,"City":"MACON"},"type":"Feature","geometry":{"type":"Point","coordinates":[-83.649902,32.702202]}},{"id":"RYY","properties":{"":"","State":"GA","Facility Name":"COBB COUNTY- MCCOLLUM FIELD","ID":"RYY","geo_accuracy":62,"geo_longitude":-84.600403,"geo_latitude":34.016399,"City":"ATLANTA"},"type":"Feature","geometry":{"type":"Point","coordinates":[-84.600403,34.016399]}},{"id":"DBQ","properties":{"":"","State":"IA","Facility Name":"DUBUQUE RGNL","ID":"DBQ","geo_accuracy":62,"geo_longitude":-90.703697,"geo_latitude":42.404678,"City":"DUBUQUE"},"type":"Feature","geometry":{"type":"Point","coordinates":[-90.703697,42.404678]}},{"id":"IDA","properties":{"":"","State":"ID","Facility Name":"IDAHO FALLS RGNL","ID":"IDA","geo_accuracy":62,"geo_longitude":-112.067001,"geo_latitude":43.5149,"City":"IDAHO FALLS"},"type":"Feature","geometry":{"type":"Point","coordinates":[-112.067001,43.5149]}},{"id":"LWS","properties":{"":"","State":"ID","Facility Name":"LEWISTON-NEZ PERCE COUNTY","ID":"LWS","geo_accuracy":62,"geo_longitude":-117.011002,"geo_latitude":46.377602,"City":"LEWISTON"},"type":"Feature","geometry":{"type":"Point","coordinates":[-117.011002,46.377602]}},{"id":"PIH","properties":{"":"","State":"ID","Facility Name":"POCATELLO RGNL","ID":"PIH","geo_accuracy":62,"geo_longitude":-112.587997,"geo_latitude":42.905602,"City":"POCATELLO"},"type":"Feature","geometry":{"type":"Point","coordinates":[-112.587997,42.905602]}},{"id":"SUN","properties":{"":"","State":"ID","Facility Name":"FRIEDMAN MEMORIAL","ID":"SUN","geo_accuracy":62,"geo_longitude":-114.301003,"geo_latitude":43.5065,"City":"HAILEY"},"type":"Feature","geometry":{"type":"Point","coordinates":[-114.301003,43.5065]}},{"id":"ALN","properties":{"":"","State":"IL","Facility Name":"ST LOUIS RGNL","ID":"ALN","geo_accuracy":62,"geo_longitude":-90.05761,"geo_latitude":38.887791,"City":"ALTON/ST LOUIS"},"type":"Feature","geometry":{"type":"Point","coordinates":[-90.05761,38.887791]}},{"id":"BMI","properties":{"":"","State":"IL","Facility Name":"CENTRAL IL RGNL ARPT AT BLOOMINGTON- NORMAL","ID":"BMI","geo_accuracy":62,"geo_longitude":-88.913498,"geo_latitude":40.4841,"City":"BLOOMINGTON/ NORMAL"},"type":"Feature","geometry":{"type":"Point","coordinates":[-88.913498,40.4841]}},{"id":"DEC","properties":{"":"","State":"IL","Facility Name":"DECATUR","ID":"DEC","geo_accuracy":62,"geo_longitude":-88.877388,"geo_latitude":39.833069,"City":"DECATUR"},"type":"Feature","geometry":{"type":"Point","coordinates":[-88.877388,39.833069]}},{"id":"MDH","properties":{"":"","State":"IL","Facility Name":"SOUTHERN ILLINOIS","ID":"MDH","geo_accuracy":62,"geo_longitude":-89.251923,"geo_latitude":37.776958,"City":"CARBONDALE/MURPHYSBORO"},"type":"Feature","geometry":{"type":"Point","coordinates":[-89.251923,37.776958]}},{"id":"UGN","properties":{"":"","State":"IL","Facility Name":"WAUKEGAN RGNL","ID":"UGN","geo_accuracy":62,"geo_longitude":-87.867203,"geo_latitude":42.4165,"City":"CHICAGO/ WAUKEGAN"},"type":"Feature","geometry":{"type":"Point","coordinates":[-87.867203,42.4165]}},{"id":"BAK","properties":{"":"","State":"IN","Facility Name":"COLUMBUS MUNI","ID":"BAK","geo_accuracy":62,"geo_longitude":-85.907898,"geo_latitude":39.262299,"City":"COLUMBUS"},"type":"Feature","geometry":{"type":"Point","coordinates":[-85.907898,39.262299]}},{"id":"GYY","properties":{"":"","State":"IN","Facility Name":"GARY/CHICAGO INTL","ID":"GYY","geo_accuracy":62,"geo_longitude":-87.408401,"geo_latitude":41.618,"City":"GARY"},"type":"Feature","geometry":{"type":"Point","coordinates":[-87.408401,41.618]}},{"id":"HUT","properties":{"":"","State":"KS","Facility Name":"HUTCHINSON MUNI","ID":"HUT","geo_accuracy":62,"geo_longitude":-97.866402,"geo_latitude":38.06057,"City":"HUTCHINSON"},"type":"Feature","geometry":{"type":"Point","coordinates":[-97.866402,38.06057]}},{"id":"IXD","properties":{"":"","State":"KS","Facility Name":"NEW CENTURY AIRCENTER","ID":"IXD","geo_accuracy":62,"geo_longitude":-94.896004,"geo_latitude":38.839531,"City":"OLATHE"},"type":"Feature","geometry":{"type":"Point","coordinates":[-94.896004,38.839531]}},{"id":"MHK","properties":{"":"","State":"KS","Facility Name":"MANHATTAN RGNL","ID":"MHK","geo_accuracy":62,"geo_longitude":-96.66983,"geo_latitude":39.136829,"City":"MANHATTAN"},"type":"Feature","geometry":{"type":"Point","coordinates":[-96.66983,39.136829]}},{"id":"OJC","properties":{"":"","State":"KS","Facility Name":"JOHNSON COUNTY EXECUTIVE","ID":"OJC","geo_accuracy":62,"geo_longitude":-94.74234,"geo_latitude":38.852291,"City":"OLATHE"},"type":"Feature","geometry":{"type":"Point","coordinates":[-94.74234,38.852291]}},{"id":"TOP","properties":{"":"","State":"KS","Facility Name":"PHILIP BILLARD MUNI","ID":"TOP","geo_accuracy":62,"geo_longitude":-95.628807,"geo_latitude":39.067188,"City":"TOPEKA"},"type":"Feature","geometry":{"type":"Point","coordinates":[-95.628807,39.067188]}},{"id":"OWB","properties":{"":"","State":"KY","Facility Name":"OWENSBORO-DAVIESS COUNTY","ID":"OWB","geo_accuracy":62,"geo_longitude":-87.163132,"geo_latitude":37.74659,"City":"OWENSBORO"},"type":"Feature","geometry":{"type":"Point","coordinates":[-87.163132,37.74659]}},{"id":"PAH","properties":{"":"","State":"KY","Facility Name":"BARKLEY RGNL","ID":"PAH","geo_accuracy":62,"geo_longitude":-88.767151,"geo_latitude":37.061218,"City":"PADUCAH"},"type":"Feature","geometry":{"type":"Point","coordinates":[-88.767151,37.061218]}},{"id":"DTN","properties":{"":"","State":"LA","Facility Name":"SHREVEPORT DOWNTOWN","ID":"DTN","geo_accuracy":50,"geo_longitude":-93.750229,"geo_latitude":32.53764,"City":"SHREVEPORT"},"type":"Feature","geometry":{"type":"Point","coordinates":[-93.750229,32.53764]}},{"id":"BVY","properties":{"":"","State":"MA","Facility Name":"BEVERLY MUNI","ID":"BVY","geo_accuracy":62,"geo_longitude":-70.911201,"geo_latitude":42.585999,"City":"BEVERLY"},"type":"Feature","geometry":{"type":"Point","coordinates":[-70.911201,42.585999]}},{"id":"EWB","properties":{"":"","State":"MA","Facility Name":"NEW BEDFORD RGNL","ID":"EWB","geo_accuracy":62,"geo_longitude":-70.957901,"geo_latitude":41.6735,"City":"NEW BEDFORD"},"type":"Feature","geometry":{"type":"Point","coordinates":[-70.957901,41.6735]}},{"id":"LWM","properties":{"":"","State":"MA","Facility Name":"LAWRENCE MUNI","ID":"LWM","geo_accuracy":62,"geo_longitude":-71.119507,"geo_latitude":42.71233,"City":"LAWRENCE"},"type":"Feature","geometry":{"type":"Point","coordinates":[-71.119507,42.71233]}},{"id":"ORH","properties":{"":"","State":"MA","Facility Name":"WORCESTER RGNL","ID":"ORH","geo_accuracy":62,"geo_longitude":-71.870598,"geo_latitude":42.269901,"City":"WORCESTER"},"type":"Feature","geometry":{"type":"Point","coordinates":[-71.870598,42.269901]}},{"id":"OWD","properties":{"":"","State":"MA","Facility Name":"NORWOOD MEMORIAL","ID":"OWD","geo_accuracy":62,"geo_longitude":-71.1782,"geo_latitude":42.186501,"City":"NORWOOD"},"type":"Feature","geometry":{"type":"Point","coordinates":[-71.1782,42.186501]}},{"id":"ESN","properties":{"":"","State":"MD","Facility Name":"EASTON/NEWNAM FIELD","ID":"ESN","geo_accuracy":62,"geo_longitude":-76.065201,"geo_latitude":38.811298,"City":"EASTON"},"type":"Feature","geometry":{"type":"Point","coordinates":[-76.065201,38.811298]}},{"id":"FDK","properties":{"":"","State":"MD","Facility Name":"FREDERICK MUNI","ID":"FDK","geo_accuracy":62,"geo_longitude":-77.379799,"geo_latitude":39.415901,"City":"FREDERICK"},"type":"Feature","geometry":{"type":"Point","coordinates":[-77.379799,39.415901]}},{"id":"HGR","properties":{"":"","State":"MD","Facility Name":"HAGERSTOWN RGNL- RICHARD A HENSON FLD","ID":"HGR","geo_accuracy":62,"geo_longitude":-77.730904,"geo_latitude":39.7048,"City":"HAGERSTOWN"},"type":"Feature","geometry":{"type":"Point","coordinates":[-77.730904,39.7048]}},{"id":"MTN","properties":{"":"","State":"MD","Facility Name":"MARTIN STATE","ID":"MTN","geo_accuracy":62,"geo_longitude":-76.423698,"geo_latitude":39.3284,"City":"BALTIMORE"},"type":"Feature","geometry":{"type":"Point","coordinates":[-76.423698,39.3284]}},{"id":"SBY","properties":{"":"","State":"MD","Facility Name":"SALISBURY-OCEAN CITY WICOMICO RGNL","ID":"SBY","geo_accuracy":62,"geo_longitude":-75.517097,"geo_latitude":38.343102,"City":"SALISBURY"},"type":"Feature","geometry":{"type":"Point","coordinates":[-75.517097,38.343102]}},{"id":"BTL","properties":{"":"","State":"MI","Facility Name":"W K KELLOGG","ID":"BTL","geo_accuracy":62,"geo_longitude":-85.244904,"geo_latitude":42.3046,"City":"BATTLE CREEK"},"type":"Feature","geometry":{"type":"Point","coordinates":[-85.244904,42.3046]}},{"id":"DET","properties":{"":"","State":"MI","Facility Name":"COLEMAN A. YOUNG MUNI","ID":"DET","geo_accuracy":62,"geo_longitude":-83.002602,"geo_latitude":42.408901,"City":"DETROIT"},"type":"Feature","geometry":{"type":"Point","coordinates":[-83.002602,42.408901]}},{"id":"SAW","properties":{"":"","State":"MI","Facility Name":"SAWYER INTL","ID":"SAW","geo_accuracy":62,"geo_longitude":-87.387047,"geo_latitude":46.350029,"City":"MARQUETTE"},"type":"Feature","geometry":{"type":"Point","coordinates":[-87.387047,46.350029]}},{"id":"ANE","properties":{"":"","State":"MN","Facility Name":"ANOKA COUNTY-BLAINE ARPT(JANES FIELD)","ID":"ANE","geo_accuracy":62,"geo_longitude":-93.219963,"geo_latitude":45.132339,"City":"MINNEAPOLIS"},"type":"Feature","geometry":{"type":"Point","coordinates":[-93.219963,45.132339]}},{"id":"STC","properties":{"":"","State":"MN","Facility Name":"ST CLOUD RGNL","ID":"STC","geo_accuracy":62,"geo_longitude":-94.066048,"geo_latitude":45.546371,"City":"ST CLOUD"},"type":"Feature","geometry":{"type":"Point","coordinates":[-94.066048,45.546371]}},{"id":"BBG","properties":{"":"","State":"MO","Facility Name":"BRANSON","ID":"BBG","geo_accuracy":62,"geo_longitude":-93.198868,"geo_latitude":36.540119,"City":"BRANSON"},"type":"Feature","geometry":{"type":"Point","coordinates":[-93.198868,36.540119]}},{"id":"COU","properties":{"":"","State":"MO","Facility Name":"COLUMBIA RGNL","ID":"COU","geo_accuracy":62,"geo_longitude":-92.221779,"geo_latitude":38.81744,"City":"COLUMBIA"},"type":"Feature","geometry":{"type":"Point","coordinates":[-92.221779,38.81744]}},{"id":"GLH","properties":{"":"","State":"MS","Facility Name":"MID DELTA RGNL","ID":"GLH","geo_accuracy":62,"geo_longitude":-90.990303,"geo_latitude":33.481899,"City":"GREENVILLE"},"type":"Feature","geometry":{"type":"Point","coordinates":[-90.990303,33.481899]}},{"id":"HKS","properties":{"":"","State":"MS","Facility Name":"HAWKINS FIELD","ID":"HKS","geo_accuracy":62,"geo_longitude":-90.215302,"geo_latitude":32.328602,"City":"JACKSON"},"type":"Feature","geometry":{"type":"Point","coordinates":[-90.215302,32.328602]}},{"id":"HSA","properties":{"":"","State":"MS","Facility Name":"STENNIS INTL (HSA)","ID":"HSA","geo_accuracy":62,"geo_longitude":-89.4506,"geo_latitude":30.3727,"City":"BAY ST LOUIS"},"type":"Feature","geometry":{"type":"Point","coordinates":[-89.4506,30.3727]}},{"id":"OLV","properties":{"":"","State":"MS","Facility Name":"OLIVE BRANCH","ID":"OLV","geo_accuracy":62,"geo_longitude":-89.790802,"geo_latitude":34.979801,"City":"OLIVE BRANCH"},"type":"Feature","geometry":{"type":"Point","coordinates":[-89.790802,34.979801]}},{"id":"TUP","properties":{"":"","State":"MS","Facility Name":"TUPELO RGNL","ID":"TUP","geo_accuracy":62,"geo_longitude":-88.765999,"geo_latitude":34.266201,"City":"TUPELO"},"type":"Feature","geometry":{"type":"Point","coordinates":[-88.765999,34.266201]}},{"id":"GPI","properties":{"":"","State":"MT","Facility Name":"GLACIER PARK INTL","ID":"GPI","geo_accuracy":62,"geo_longitude":-114.303001,"geo_latitude":48.1791,"City":"KALISPELL"},"type":"Feature","geometry":{"type":"Point","coordinates":[-114.303001,48.1791]}},{"id":"EWN","properties":{"":"","State":"NC","Facility Name":"COASTAL CAROLINA REGIONAL","ID":"EWN","geo_accuracy":62,"geo_longitude":-77.034401,"geo_latitude":35.078499,"City":"NEW BERN"},"type":"Feature","geometry":{"type":"Point","coordinates":[-77.034401,35.078499]}},{"id":"HKY","properties":{"":"","State":"NC","Facility Name":"HICKORY RGNL","ID":"HKY","geo_accuracy":62,"geo_longitude":-81.3899,"geo_latitude":35.7421,"City":"HICKORY"},"type":"Feature","geometry":{"type":"Point","coordinates":[-81.3899,35.7421]}},{"id":"INT","properties":{"":"","State":"NC","Facility Name":"SMITH REYNOLDS","ID":"INT","geo_accuracy":62,"geo_longitude":-80.229301,"geo_latitude":36.136101,"City":"WINSTON SALEM"},"type":"Feature","geometry":{"type":"Point","coordinates":[-80.229301,36.136101]}},{"id":"ISO","properties":{"":"","State":"NC","Facility Name":"KINSTON RGNL JETPORT AT STALLINGS FLD","ID":"ISO","geo_accuracy":62,"geo_longitude":-77.611504,"geo_latitude":35.324299,"City":"KINSTON"},"type":"Feature","geometry":{"type":"Point","coordinates":[-77.611504,35.324299]}},{"id":"JQF","properties":{"":"","State":"NC","Facility Name":"CONCORD RGNL","ID":"JQF","geo_accuracy":62,"geo_longitude":-80.716599,"geo_latitude":35.386211,"City":"CONCORD"},"type":"Feature","geometry":{"type":"Point","coordinates":[-80.716599,35.386211]}},{"id":"ASH","properties":{"":"","State":"NH","Facility Name":"BOIRE FIELD","ID":"ASH","geo_accuracy":62,"geo_longitude":-71.515999,"geo_latitude":42.778702,"City":"NASHUA"},"type":"Feature","geometry":{"type":"Point","coordinates":[-71.515999,42.778702]}},{"id":"TTN","properties":{"":"","State":"NJ","Facility Name":"TRENTON MERCER","ID":"TTN","geo_accuracy":62,"geo_longitude":-74.818199,"geo_latitude":40.2775,"City":"TRENTON"},"type":"Feature","geometry":{"type":"Point","coordinates":[-74.818199,40.2775]}},{"id":"AEG","properties":{"":"","State":"NM","Facility Name":"DOUBLE EAGLE II","ID":"AEG","geo_accuracy":62,"geo_longitude":-106.795998,"geo_latitude":35.156399,"City":"ALBUQUERQUE"},"type":"Feature","geometry":{"type":"Point","coordinates":[-106.795998,35.156399]}},{"id":"SAF","properties":{"":"","State":"NM","Facility Name":"SANTA FE MUNI","ID":"SAF","geo_accuracy":62,"geo_longitude":-106.084,"geo_latitude":35.618198,"City":"SANTA FE"},"type":"Feature","geometry":{"type":"Point","coordinates":[-106.084,35.618198]}},{"id":"ITH","properties":{"":"","State":"NY","Facility Name":"ITHACA TOMPKINS RGNL","ID":"ITH","geo_accuracy":62,"geo_longitude":-76.462517,"geo_latitude":42.489342,"City":"ITHACA"},"type":"Feature","geometry":{"type":"Point","coordinates":[-76.462517,42.489342]}},{"id":"RME","properties":{"":"","State":"NY","Facility Name":"GRIFFISS INTL","ID":"RME","geo_accuracy":62,"geo_longitude":-75.407402,"geo_latitude":43.226299,"City":"ROME"},"type":"Feature","geometry":{"type":"Point","coordinates":[-75.407402,43.226299]}},{"id":"CGF","properties":{"":"","State":"OH","Facility Name":"CUYAHOGA COUNTY","ID":"CGF","geo_accuracy":62,"geo_longitude":-81.490059,"geo_latitude":41.567581,"City":"CLEVELAND"},"type":"Feature","geometry":{"type":"Point","coordinates":[-81.490059,41.567581]}},{"id":"OSU","properties":{"":"","State":"OH","Facility Name":"OHIO STATE UNIVERSITY","ID":"OSU","geo_accuracy":62,"geo_longitude":-83.075531,"geo_latitude":40.074551,"City":"COLUMBUS"},"type":"Feature","geometry":{"type":"Point","coordinates":[-83.075531,40.074551]}},{"id":"TZR","properties":{"":"","State":"OH","Facility Name":"BOLTON FIELD","ID":"TZR","geo_accuracy":62,"geo_longitude":-83.144302,"geo_latitude":39.9086,"City":"COLUMBUS"},"type":"Feature","geometry":{"type":"Point","coordinates":[-83.144302,39.9086]}},{"id":"LAW","properties":{"":"","State":"OK","Facility Name":"LAWTON-FORT SILL RGNL","ID":"LAW","geo_accuracy":62,"geo_longitude":-98.413498,"geo_latitude":34.573002,"City":"LAWTON"},"type":"Feature","geometry":{"type":"Point","coordinates":[-98.413498,34.573002]}},{"id":"OUN","properties":{"":"","State":"OK","Facility Name":"UNIVERSITY OF OKLAHOMA WESTHEIMER","ID":"OUN","geo_accuracy":62,"geo_longitude":-97.466301,"geo_latitude":35.240799,"City":"NORMAN"},"type":"Feature","geometry":{"type":"Point","coordinates":[-97.466301,35.240799]}},{"id":"PWA","properties":{"":"","State":"OK","Facility Name":"WILEY POST","ID":"PWA","geo_accuracy":62,"geo_longitude":-97.6409,"geo_latitude":35.530399,"City":"OKLAHOMA CITY"},"type":"Feature","geometry":{"type":"Point","coordinates":[-97.6409,35.530399]}},{"id":"SWO","properties":{"":"","State":"OK","Facility Name":"STILLWATER RGNL","ID":"SWO","geo_accuracy":62,"geo_longitude":-97.075104,"geo_latitude":36.1618,"City":"STILLWATER"},"type":"Feature","geometry":{"type":"Point","coordinates":[-97.075104,36.1618]}},{"id":"OTH","properties":{"":"","State":"OR","Facility Name":"SOUTHWEST OREGON RGNL","ID":"OTH","geo_accuracy":62,"geo_longitude":-124.244652,"geo_latitude":43.41444,"City":"NORTH BEND"},"type":"Feature","geometry":{"type":"Point","coordinates":[-124.244652,43.41444]}},{"id":"PDT","properties":{"":"","State":"OR","Facility Name":"EASTERN OREGON RGNL AT PENDLETON","ID":"PDT","geo_accuracy":62,"geo_longitude":-118.838593,"geo_latitude":45.689129,"City":"PENDLETON"},"type":"Feature","geometry":{"type":"Point","coordinates":[-118.838593,45.689129]}},{"id":"SLE","properties":{"":"","State":"OR","Facility Name":"MCNARY FLD","ID":"SLE","geo_accuracy":62,"geo_longitude":-123.008247,"geo_latitude":44.910431,"City":"SALEM"},"type":"Feature","geometry":{"type":"Point","coordinates":[-123.008247,44.910431]}},{"id":"TTD","properties":{"":"","State":"OR","Facility Name":"PORTLAND-TROUTDALE","ID":"TTD","geo_accuracy":62,"geo_longitude":-122.396309,"geo_latitude":45.545422,"City":"PORTLAND"},"type":"Feature","geometry":{"type":"Point","coordinates":[-122.396309,45.545422]}},{"id":"CXY","properties":{"":"","State":"PA","Facility Name":"CAPITAL CITY","ID":"CXY","geo_accuracy":62,"geo_longitude":-76.853798,"geo_latitude":40.221001,"City":"HARRISBURG"},"type":"Feature","geometry":{"type":"Point","coordinates":[-76.853798,40.221001]}},{"id":"LBE","properties":{"":"","State":"PA","Facility Name":"ARNOLD PALMER RGNL","ID":"LBE","geo_accuracy":62,"geo_longitude":-79.405602,"geo_latitude":40.2728,"City":"LATROBE"},"type":"Feature","geometry":{"type":"Point","coordinates":[-79.405602,40.2728]}},{"id":"LNS","properties":{"":"","State":"PA","Facility Name":"LANCASTER","ID":"LNS","geo_accuracy":70,"geo_longitude":-76.204948,"geo_latitude":40.040199,"City":"LANCASTER"},"type":"Feature","geometry":{"type":"Point","coordinates":[-76.204948,40.040199]}},{"id":"CRE","properties":{"":"","State":"SC","Facility Name":"GRAND STRAND","ID":"CRE","geo_accuracy":62,"geo_longitude":-78.719101,"geo_latitude":33.810799,"City":"NORTH MYRTLE BEACH"},"type":"Feature","geometry":{"type":"Point","coordinates":[-78.719101,33.810799]}},{"id":"GYH","properties":{"":"","State":"SC","Facility Name":"DONALDSON CENTER","ID":"GYH","geo_accuracy":62,"geo_longitude":-82.370003,"geo_latitude":34.760899,"City":"GREENVILLE"},"type":"Feature","geometry":{"type":"Point","coordinates":[-82.370003,34.760899]}},{"id":"HXD","properties":{"":"","State":"SC","Facility Name":"HILTON HEAD","ID":"HXD","geo_accuracy":62,"geo_longitude":-80.698898,"geo_latitude":32.2267,"City":"HILTON HEAD ISLAND"},"type":"Feature","geometry":{"type":"Point","coordinates":[-80.698898,32.2267]}},{"id":"MKL","properties":{"":"","State":"TN","Facility Name":"MC KELLAR-SIPES RGNL","ID":"MKL","geo_accuracy":62,"geo_longitude":-88.92186,"geo_latitude":35.602661,"City":"JACKSON"},"type":"Feature","geometry":{"type":"Point","coordinates":[-88.92186,35.602661]}},{"id":"NQA","properties":{"":"","State":"TN","Facility Name":"MILLINGTON RGNL JETPORT","ID":"NQA","geo_accuracy":62,"geo_longitude":-89.869667,"geo_latitude":35.349178,"City":"MILLINGTON"},"type":"Feature","geometry":{"type":"Point","coordinates":[-89.869667,35.349178]}},{"id":"BAZ","properties":{"":"","State":"TX","Facility Name":"NEW BRAUNFELS MUNI","ID":"BAZ","geo_accuracy":62,"geo_longitude":-98.038361,"geo_latitude":29.69874,"City":"NEW BRAUNFELS"},"type":"Feature","geometry":{"type":"Point","coordinates":[-98.038361,29.69874]}},{"id":"BRO","properties":{"":"","State":"TX","Facility Name":"BROWNSVILLE/ SOUTH PADRE ISLAND INTL","ID":"BRO","geo_accuracy":62,"geo_longitude":-97.432037,"geo_latitude":25.90638,"City":"BROWNSVILLE"},"type":"Feature","geometry":{"type":"Point","coordinates":[-97.432037,25.90638]}},{"id":"CLL","properties":{"":"","State":"TX","Facility Name":"EASTERWOOD FIELD","ID":"CLL","geo_accuracy":62,"geo_longitude":-96.3666,"geo_latitude":30.5938,"City":"COLLEGE STATION"},"type":"Feature","geometry":{"type":"Point","coordinates":[-96.3666,30.5938]}},{"id":"CNW","properties":{"":"","State":"TX","Facility Name":"TSTC WACO","ID":"CNW","geo_accuracy":62,"geo_longitude":-97.079437,"geo_latitude":31.638981,"City":"WACO"},"type":"Feature","geometry":{"type":"Point","coordinates":[-97.079437,31.638981]}},{"id":"CXO","properties":{"":"","State":"TX","Facility Name":"LONE STAR EXECUTIVE","ID":"CXO","geo_accuracy":62,"geo_longitude":-95.4198,"geo_latitude":30.3535,"City":"HOUSTON"},"type":"Feature","geometry":{"type":"Point","coordinates":[-95.4198,30.3535]}},{"id":"GTU","properties":{"":"","State":"TX","Facility Name":"GEORGETOWN MUNI","ID":"GTU","geo_accuracy":62,"geo_longitude":-97.675507,"geo_latitude":30.67955,"City":"GEORGETOWN"},"type":"Feature","geometry":{"type":"Point","coordinates":[-97.675507,30.67955]}},{"id":"HYI","properties":{"":"","State":"TX","Facility Name":"SAN MARCOS MUNI","ID":"HYI","geo_accuracy":62,"geo_longitude":-97.872063,"geo_latitude":29.88788,"City":"SAN MARCOS"},"type":"Feature","geometry":{"type":"Point","coordinates":[-97.872063,29.88788]}},{"id":"RBD","properties":{"":"","State":"TX","Facility Name":"DALLAS EXECUTIVE","ID":"RBD","geo_accuracy":62,"geo_longitude":-96.864502,"geo_latitude":32.680801,"City":"DALLAS"},"type":"Feature","geometry":{"type":"Point","coordinates":[-96.864502,32.680801]}},{"id":"SGR","properties":{"":"","State":"TX","Facility Name":"SUGAR LAND RGNL","ID":"SGR","geo_accuracy":62,"geo_longitude":-95.652496,"geo_latitude":29.6266,"City":"HOUSTON"},"type":"Feature","geometry":{"type":"Point","coordinates":[-95.652496,29.6266]}},{"id":"SSF","properties":{"":"","State":"TX","Facility Name":"STINSON MUNI","ID":"SSF","geo_accuracy":62,"geo_longitude":-98.467888,"geo_latitude":29.339251,"City":"SAN ANTONIO"},"type":"Feature","geometry":{"type":"Point","coordinates":[-98.467888,29.339251]}},{"id":"TKI","properties":{"":"","State":"TX","Facility Name":"COLLIN COUNTY RGNL AT MC KINNEY","ID":"TKI","geo_accuracy":62,"geo_longitude":-96.5924,"geo_latitude":33.1772,"City":"DALLAS"},"type":"Feature","geometry":{"type":"Point","coordinates":[-96.5924,33.1772]}},{"id":"TYR","properties":{"":"","State":"TX","Facility Name":"TYLER POUNDS RGNL","ID":"TYR","geo_accuracy":62,"geo_longitude":-95.411697,"geo_latitude":32.350498,"City":"TYLER"},"type":"Feature","geometry":{"type":"Point","coordinates":[-95.411697,32.350498]}},{"id":"VCT","properties":{"":"","State":"TX","Facility Name":"VICTORIA RGNL","ID":"VCT","geo_accuracy":62,"geo_longitude":-96.920013,"geo_latitude":28.844931,"City":"VICTORIA"},"type":"Feature","geometry":{"type":"Point","coordinates":[-96.920013,28.844931]}},{"id":"OGD","properties":{"":"","State":"UT","Facility Name":"OGDEN-HINCKLEY","ID":"OGD","geo_accuracy":62,"geo_longitude":-112.008003,"geo_latitude":41.191299,"City":"OGDEN"},"type":"Feature","geometry":{"type":"Point","coordinates":[-112.008003,41.191299]}},{"id":"PVU","properties":{"":"","State":"UT","Facility Name":"PROVO MUNI","ID":"PVU","geo_accuracy":62,"geo_longitude":-111.717003,"geo_latitude":40.2202,"City":"PROVO"},"type":"Feature","geometry":{"type":"Point","coordinates":[-111.717003,40.2202]}},{"id":"LYH","properties":{"":"","State":"VA","Facility Name":"LYNCHBURG RGNL/ PRESTON GLENN FLD","ID":"LYH","geo_accuracy":62,"geo_longitude":-79.194397,"geo_latitude":37.330799,"City":"LYNCHBURG"},"type":"Feature","geometry":{"type":"Point","coordinates":[-79.194397,37.330799]}},{"id":"OLM","properties":{"":"","State":"WA","Facility Name":"OLYMPIA RGNL","ID":"OLM","geo_accuracy":62,"geo_longitude":-122.909714,"geo_latitude":46.97591,"City":"OLYMPIA"},"type":"Feature","geometry":{"type":"Point","coordinates":[-122.909714,46.97591]}},{"id":"RNT","properties":{"":"","State":"WA","Facility Name":"RENTON MUNI","ID":"RNT","geo_accuracy":62,"geo_longitude":-122.217613,"geo_latitude":47.49184,"City":"RENTON"},"type":"Feature","geometry":{"type":"Point","coordinates":[-122.217613,47.49184]}},{"id":"SFF","properties":{"":"","State":"WA","Facility Name":"FELTS FIELD","ID":"SFF","geo_accuracy":62,"geo_longitude":-117.320381,"geo_latitude":47.680012,"City":"SPOKANE"},"type":"Feature","geometry":{"type":"Point","coordinates":[-117.320381,47.680012]}},{"id":"TIW","properties":{"":"","State":"WA","Facility Name":"TACOMA NARROWS","ID":"TIW","geo_accuracy":62,"geo_longitude":-122.574577,"geo_latitude":47.26899,"City":"TACOMA"},"type":"Feature","geometry":{"type":"Point","coordinates":[-122.574577,47.26899]}},{"id":"YKM","properties":{"":"","State":"WA","Facility Name":"YAKIMA AIR TERMINAL/ MCALLISTER FIELD","ID":"YKM","geo_accuracy":62,"geo_longitude":-120.539948,"geo_latitude":46.570332,"City":"YAKIMA"},"type":"Feature","geometry":{"type":"Point","coordinates":[-120.539948,46.570332]}},{"id":"CWA","properties":{"":"","State":"WI","Facility Name":"CENTRAL WISCONSIN","ID":"CWA","geo_accuracy":62,"geo_longitude":-89.67083,"geo_latitude":44.784328,"City":"MOSINEE"},"type":"Feature","geometry":{"type":"Point","coordinates":[-89.67083,44.784328]}},{"id":"EAU","properties":{"":"","State":"WI","Facility Name":"CHIPPEWA VALLEY RGNL EAU","ID":"EAU","geo_accuracy":62,"geo_longitude":-91.482727,"geo_latitude":44.862511,"City":"CLAIRE"},"type":"Feature","geometry":{"type":"Point","coordinates":[-91.482727,44.862511]}},{"id":"ENW","properties":{"":"","State":"WI","Facility Name":"KENOSHA RGNL","ID":"ENW","geo_accuracy":62,"geo_longitude":-87.929802,"geo_latitude":42.593498,"City":"KENOSHA"},"type":"Feature","geometry":{"type":"Point","coordinates":[-87.929802,42.593498]}},{"id":"JVL","properties":{"":"","State":"WI","Facility Name":"SOUTHERN WISCONSIN RGNL","ID":"JVL","geo_accuracy":62,"geo_longitude":-89.041298,"geo_latitude":42.614498,"City":"JANESVILLE"},"type":"Feature","geometry":{"type":"Point","coordinates":[-89.041298,42.614498]}},{"id":"LSE","properties":{"":"","State":"WI","Facility Name":"LA CROSSE MUNI","ID":"LSE","geo_accuracy":62,"geo_longitude":-91.26384,"geo_latitude":43.875092,"City":"LA CROSSE"},"type":"Feature","geometry":{"type":"Point","coordinates":[-91.26384,43.875092]}},{"id":"MWC","properties":{"":"","State":"WI","Facility Name":"LAWRENCE J TIMMERMAN","ID":"MWC","geo_accuracy":50,"geo_longitude":-88.034142,"geo_latitude":43.111439,"City":"MILWAUKEE"},"type":"Feature","geometry":{"type":"Point","coordinates":[-88.034142,43.111439]}},{"id":"OSH","properties":{"":"","State":"WI","Facility Name":"WITTMAN RGNL","ID":"OSH","geo_accuracy":62,"geo_longitude":-88.5513,"geo_latitude":43.994301,"City":"OSHKOSH"},"type":"Feature","geometry":{"type":"Point","coordinates":[-88.5513,43.994301]}},{"id":"UES","properties":{"":"","State":"WI","Facility Name":"WAUKESHA COUNTY","ID":"UES","geo_accuracy":62,"geo_longitude":-88.237099,"geo_latitude":43.034,"City":"WAUKESHA"},"type":"Feature","geometry":{"type":"Point","coordinates":[-88.237099,43.034]}},{"id":"HLG","properties":{"":"","State":"WV","Facility Name":"WHEELING OHIO CO","ID":"HLG","geo_accuracy":62,"geo_longitude":-80.642464,"geo_latitude":40.175171,"City":"WHEELING"},"type":"Feature","geometry":{"type":"Point","coordinates":[-80.642464,40.175171]}},{"id":"LWB","properties":{"":"","State":"WV","Facility Name":"GREENBRIER VALLEY","ID":"LWB","geo_accuracy":62,"geo_longitude":-80.404404,"geo_latitude":37.857201,"City":"LEWISBURG"},"type":"Feature","geometry":{"type":"Point","coordinates":[-80.404404,37.857201]}},{"id":"PKB","properties":{"":"","State":"WV","Facility Name":"MID-OHIO VALLEY RGNL","ID":"PKB","geo_accuracy":62,"geo_longitude":-81.4356,"geo_latitude":39.344898,"City":"PARKERSBURG"},"type":"Feature","geometry":{"type":"Point","coordinates":[-81.4356,39.344898]}}],"type":"FeatureCollection"}